Name	Another name	Abbr.	Commercial name		Type	Km Hki	Code	Section	Municipality	Traffic control		Private sidings	Shunting	Latitude	Longitude
Ahonpää		Aho			Liikennepaikka	690+468	01343	Seinäjoki–Oulu	Siikajoki	K			K	64.537118	25.006783
Ahvenus		Ahv			Liikennepaikka	270+960	01000	Lielahti–Kokemäki	Kokemäki	K				61.291923	22.498185
Ainola		Ain			Seisake	34+784	00628	Helsinki–Riihimäki	Järvenpää					60.455619	25.101895
Airaksela		Arl			Liikennepaikka	436+985	00869	Pieksämäki–Kontiomäki	Kuopio	K		K	K	62.724396	27.4295
Aittaluoto		Atl			Liikennepaikka	328+220	00676	Pori–Aittaluoto	Pori			K	K	61.476933	21.84537
Ajos		Ajo			Liikennepaikka	867+098	00767	Kemi–Ajos	Kemi			K	K	65.673679	24.541716
Alapitkä		Apt			Liikennepaikka	505+840	00415	Pieksämäki–Kontiomäki	Lapinlahti	K			K	63.200823	27.535426
Alavus		Alv			Liikennepaikka	373+445	00284	Orivesi–Seinäjoki	Alavus	K			K	62.617769	23.600437
Alholma	Alholmen	Alh			Liikennepaikka	532+570	00308	Pietarsaari–Alholma	Pietarsaari			K	K	63.706765	22.695265
Arola		Aro			Liikennepaikka	707+668	00939	Kontiomäki–Vartius-raja	Hyrynsalmi	K			K	64.450787	29.022513
Asola		Aso			Liikennepaikka	31+596	01340	Huopalahti–Havukoski	Vantaa	K				60.320974	25.047287
Aviapolis		Avp			Seisake	25+135	01331	Huopalahti–Havukoski	Vantaa					60.30435	24.956191
Dragsvik		Dra			Liikennepaikka	171+180	00167	Karjaa–Hanko	Raasepori	K				59.990199	23.488607
Dynamiittivaihde		Dmv			Linjavaihde	199+185	00581	Karjaa–Hanko	Hanko			K	K	59.866408	23.084138
Eläinpuisto-Zoo		Epz			Seisake	338+683	00623	Orivesi–Seinäjoki	Ähtäri					62.540677	24.191479
Eno		Eno			Liikennepaikka	660+170	00464	Joensuu–Nurmes	Joensuu	K			K	62.806375	30.141691
Ervelä		Erv			Liikennepaikka	119+816	01004	Helsinki–Turku satama	Salo	K				60.203374	23.22228
Eskola		Ela			Liikennepaikka	603+762	00318	Seinäjoki–Oulu	Kannus	K			K	63.914902	24.151369
Espoo	Esbo	Epo			Liikennepaikka	20+600	00066	Helsinki–Turku satama	Espoo	K				60.205067	24.655992
Haapajärvi		Hpj			Liikennepaikka	649+205	00330	Iisalmi–Ylivieska, Äänekoski–Haapajärvi	Haapajärvi	K			K	63.754515	25.33434
Haapakoski		Hps			Liikennepaikka	393+454	00402	Pieksämäki–Kontiomäki	Pieksämäki	K			K	62.452365	27.175449
Haapamäen kyllästämö		Hmk			Linjavaihde	304+940	01008	Orivesi–Seinäjoki	Keuruu			K		#N/A	#N/A
Haapamäki		Hpk			Liikennepaikka	300+235	00200	Haapamäki–Jyväskylä, Orivesi–Seinäjoki	Keuruu	K		K	K	62.246476	24.455067
Haaparanta pohjoinen	Haparanda norra	Hpa	Haaparanta / Haparanda		Liikennepaikka	888+085	SE 10726	Laurila–Tornio raja–Haaparanta	Haparanda	K			K	65.828226	24.130219
Haarajoki		Haa			Liikennepaikka	39+567	00013	Kerava–Hakosilta	Järvenpää	K				60.496261	25.13382
Hakosilta		Hlt			Liikennepaikka	119+540	01014	Kerava–Hakosilta, Riihimäki–Kouvola	Hollola	K				60.925032	25.513357
Hamina	Fredrikshamn	Hma			Liikennepaikka	243+646	00527	Juurikorpi–Hamina	Hamina	M		K	K	60.55232	27.166505
Hammaslahti		Hsl			Liikennepaikka	602+199	00451	Kouvola–Joensuu	Joensuu	K			K	62.430216	29.968366
Hanala	Hanaböle	Hna			Liikennepaikka	21+394	01018	Helsinki–Riihimäki	Vantaa	K				60.339607	25.072363
Hangonsaari		Hgs			Liikennepaikka	268+680	01020	Uusikaupunki–Hangonsaari	Uusikaupunki			K		60.7992	21.360988
Hanhikoski		Hnh			Linjavaihde	1047+083	00812	Laurila–Kemijärvi	Kemijärvi					66.695831	27.219836
Hankasalmi		Hks			Liikennepaikka	418+089	00427	Jyväskylä–Pieksämäki	Hankasalmi	K		K	K	62.302807	26.478116
HANKO		Han			Osiin jaettu liikennepaikka	–	–	Karjaa–Hanko		K				#N/A	#N/A
Hanko asema	Hangö	Hnk	Hanko		Liikennepaikan osa (Hanko)	207+119	00073		Hanko			K	K	59.826865	22.968291
Hanko tavara		Hnkt			Liikennepaikan osa (Hanko)	206+350	01317		Hanko				K	59.828617	22.981473
Hanko-Pohjoinen	Hangö Norra	Hkp			Liikennepaikan osa (Hanko)	205+935	00879		Hanko					59.830141	22.988361
Harjavalta		Hva			Liikennepaikka	295+542	00218	Kokemäki–Pori	Harjavalta	K		K	K	61.309689	22.133261
Harju		Hj			Liikennepaikka	201+643	00985	Kouvola–Pieksämäki	Kouvola	K			K	60.940616	26.677153
Harviala		Hrv			Liikennepaikka	99+456	00622	Riihimäki–Tampere	Janakkala	K				60.95365	24.57693
Haukipudas		Hd			Liikennepaikka	775+159	00342	Oulu–Laurila	Oulu	K			K	65.195636	25.407075
Haukivuori		Hau			Liikennepaikka	344+442	00549	Kouvola–Pieksämäki	Mikkeli	K			K	62.025658	27.202606
HAUSJÄRVI		Hjr			Osiin jaettu liikennepaikka	–	–	Riihimäki–Kouvola		K				#N/A	#N/A
Hausjärvi tavara		Has			Liikennepaikan osa	86+210	00340		Hausjärvi				K	60.785411	25.014992
Oitti		Oi			Liikennepaikan osa	86+809	00092		Hausjärvi					60.789806	25.021316
Haviseva		Hvs			Liikennepaikka	208+135	01021	Tampere–Jyväskylä	Kangasala	K				61.550664	24.087374
Heikkilä		Hek			Liikennepaikka	34+856	01023	Helsinki–Turku satama	Kirkkonummi	K				60.121966	24.480906
Heinola		Ha			Liikennepaikka	167+607	00113	Lahti–Heinola	Heinola	M		K	K	61.20317	26.046963
Heinoo		Hno			Liikennepaikka	237+965	01025	Lielahti–Kokemäki	Sastamala	K				61.394254	22.971145
Heinävaara		Häv			Liikennepaikka	648+408	00924	Joensuu–Ilomantsi	Joensuu					62.55575	30.190207
Heinävesi		Hnv			Liikennepaikka	468+135	00437	Pieksämäki–Joensuu	Heinävesi	K			K	62.382542	28.643419
HELSINKI		Hel			Osiin jaettu liikennepaikka	–	–	Helsinki–Turku satama, Helsinki–Riihimäki		M				#N/A	#N/A
Helsinki asema	Helsingfors	Hki	Helsinki		Liikennepaikan osa	0+159	00001		Helsinki				K	60.171356	24.941444
Pasila asema	Böle	Psl	Pasila		Liikennepaikan osa	3+230	00010		Helsinki					60.198689	24.933521
Pasila autojuna-asema	Böle biltågstation	Pau			Liikennepaikan osa	4+319	01328		Helsinki				K	60.208303	24.933169
Ilmala asema		Ila	Ilmala		Liikennepaikan osa	4+434	00009		Helsinki					60.207808	24.920829
Helsinki Kivihaka	Stenhagen	Khk			Liikennepaikan osa	4+701	01028		Helsinki					60.209813	24.917191
Pasila tavara		Pslt			Liikennepaikan osa	4+748	01034		Helsinki			K	K	60.212086	24.934411
Ilmala ratapiha		Ilr			Liikennepaikan osa	4+950	01030		Helsinki			K	K	60.21312	24.928154
Helsinki Louhenpuisto		Lop			Liikennepaikan osa	4+390	01370		Helsinki					60.20884	24.93398
Käpylä	Kottby	Käp			Liikennepaikan osa	5+840	00977		Helsinki					60.22017	24.946034
Oulunkylä	Åggelby	Olk			Liikennepaikan osa	7+399	00015		Helsinki					60.229	24.967676
Helsinki Veräjälaakso		Vrj			Liikennepaikan osa	7+880	01371		Helsinki					60.231999	24.973708
Henna		Hnn			Liikennepaikka	79+373	01164	Kerava–Hakosilta	Orimattila	K				60.799132	25.494389
Herrala		Hr			Seisake	115+790	00096	Riihimäki–Kouvola	Hollola					60.896944	25.475624
Hiirola		Hir			Liikennepaikka	318+957	00997	Kouvola–Pieksämäki	Mikkeli	K			K	61.808118	27.315826
Hikiä		Hk			Seisake	79+743	00091	Riihimäki–Kouvola	Hausjärvi					60.752588	24.919201
Hillosensalmi		Hls			Liikennepaikka	233+344	00988	Kouvola–Pieksämäki	Kouvola	K				61.193088	26.789163
Hirvineva		Hvn			Liikennepaikka	715+500	01041	Seinäjoki–Oulu	Liminka	K			K	64.733984	25.227499
Humppila		Hp			Liikennepaikka	188+778	00144	Toijala–Turku	Humppila	K			K	60.919507	23.362536
Huopalahti	Hoplax	Hpl			Liikennepaikka	6+375	00072	Helsinki–Turku satama, Huopalahti–Havukoski	Helsinki	K				60.21835	24.893523
Huutokoski		Hko			Liikennepaikka	406+988	00430	Pieksämäki–Joensuu, Huutokoski–Savonlinna	Joroinen	K				62.210069	27.68887
Hyrkäs		Hyr			Liikennepaikka	800+442	01348	Oulu–Kontiomäki	Muhos	K				64.788806	26.22007
Hyrynsalmi		Hys			Liikennepaikka	704+601	00392	Kontiomäki–Ämmänsaari	Hyrynsalmi	M			K	64.683757	28.462708
HYVINKÄÄ		Hyv			Osiin jaettu liikennepaikka	–	–	Helsinki–Riihimäki, Hyvinkää–Karjaa	Hyvinkää	K				#N/A	#N/A
Hyvinkää asema	Hyvinge	Hy			Liikennepaikan osa (Hyvinkä	58+792	00030	Helsinki–Riihimäki, Hyvinkää–Karjaa	Hyvinkää			K	K	60.63126	24.857481
Hyvinkää tavara		Hyt	Hyvinkää		Liikennepaikan osa (Hyvinkä	60+179	01367		Hyvinkää			K	K	60.625655	24.846961
Hyvinkää Paavola		Pvl			Liikennepaikan osa (Hyvinkä	61+140	01368		Hyvinkää					60.650153	24.840155
Hämeenlinna	Tavastehus	Hl			Liikennepaikka	107+559	00047	Riihimäki–Tampere	Hämeenlinna	K		K	K	61.002368	24.478851
Härmä		Hm			Liikennepaikka	472+940	00300	Seinäjoki–Oulu	Kauhava	K			K	63.234321	22.876631
Höljäkkä		Höl			Seisake	765+261	00938	Joensuu–Nurmes	Nurmes			K	K	63.454874	29.44413
Ii		Ii			Liikennepaikka	789+165	00343	Oulu–Laurila	Ii	K				65.318819	25.441902
Iisalmen teollisuusraiteet	Keveli	Itr			Linjavaihde	548+611	01049	Pieksämäki–Kontiomäki	Iisalmi			K	K	63.545757	27.213924
Iisalmi	Idensalmi	Ilm			Liikennepaikka	550+360	00420	Iisalmi–Ylivieska, Pieksämäki–Kontiomäki	Iisalmi	K		K	K	63.560099	27.201109
Iittala		Ita			Seisake	129+286	00154	Riihimäki–Tampere	Hämeenlinna					61.090616	24.140789
Ilola		Ioa			Seisake	155+102	01345	Toijala–Valkeakoski	Valkeakoski					61.229936	23.875154
Ilomantsi	Ilomants	Ilo			Liikennepaikka	695+203	00459	Joensuu–Ilomantsi	Ilomantsi	M		K	K	62.666381	30.941562
IMATRA		Ima			Osiin jaettu liikennepaikka	–	–	Kouvola–Joensuu, Imatra tavara–Imatrankoski-raja	Imatra	K				#N/A	#N/A
Imatra asema		Imr	Imatra		Liikennepaikan osa (Imatra)	323+977	00603		Imatra					61.195914	28.776017
Imatra tavara		Imt			Liikennepaikan osa (Imatra)	326+542	00502		Imatra			K	K	61.208116	28.812093
Imatrankoski		Imk			Liikennepaikan osa (Imatra)	331+267	00504		Imatra			K	K	61.170432	28.788045
Immola		Im			Liikennepaikan osa (Imatra)	332+699	01352		Imatra				K	61.246855	28.883766
Pelkola		Pa			Liikennepaikan osa (Imatra)	335+672	01055		Imatra			K		61.13426	28.813728
Imatrankoski-raja		Imkr			Liikennepaikka	337+095	00503	Imatra tavara–Imatrankoski-raja	Imatra					61.124973	28.831782
Inha		In			Linjavaihde	341+367	00264	Orivesi–Seinäjoki	Ähtäri					62.550706	24.146053
Inkeroinen		Ikr			Liikennepaikka	212+781	00530	Kouvola–Kotka	Kouvola	K		K	K	60.696674	26.839178
Inkoo	Ingå	Iko			Liikennepaikka	70+620	00062	Helsinki–Turku satama	Inkoo	K				60.061511	23.93585
Isokyrö	Storkyro	Iky			Liikennepaikka	447+488	00295	Seinäjoki–Vaasa	Isokyrö	K				62.951072	22.394797
Jalasjärvi		Jal			Liikennepaikka	309+871	00276	Tampere–Seinäjoki	Kurikka	K				62.472534	22.954266
Jepua	Jeppo	Jpa			Liikennepaikka	495+784	00303	Seinäjoki–Oulu	Uusikaarlepyy	K			K	63.408383	22.655272
JOENSUU		Joe			Osiin jaettu liikennepaikka	–	–	Pieksämäki–Joensuu, Kouvola–Joensuu, Joensuu–Ilomantsi,		M				#N/A	#N/A
Joensuu Koppola		Kpp			Liikennepaikan osa	620+902	01369		Joensuu					62.572314	29.79147
Joensuu Sulkulahti		Sul			Liikennepaikan osa	622+650	01071		Joensuu				K	62.58571	29.775371
Joensuu Peltola		Plt			Liikennepaikan osa	623+540	01070		Joensuu			K	K	62.593453	29.771729
Joensuu asema		Jns	Joensuu		Liikennepaikan osa	624+313	00460		Joensuu			K	K	62.599536	29.777033
Onttola		Ont			Liikennepaikan osa (Joensuu	631+177	00443	Pieksämäki–Joensuu	Joensuu			K		62.635524	29.700477
Jokela		Jk			Liikennepaikka	47+937	00028	Helsinki–Riihimäki	Tuusula	K				60.552798	24.970682
Joroinen	Jorois	Jor			Linjavaihde	414+617	00431	Huutokoski–Savonlinna	Joroinen					62.17479	27.808684
Jorvas		Jrs			Seisake	32+322	00578	Helsinki–Turku satama	Kirkkonummi					60.137885	24.512776
Joutseno		Jts			Liikennepaikka	305+826	00499	Kouvola–Joensuu	Lappeenranta	K		K	K	61.120291	28.488252
Juankoski		Jki			Liikennepaikka	532+005	00414	Siilinjärvi–Viinijärvi	Kuopio	K			K	63.063182	28.318074
Jutila		Jut			Liikennepaikka	94+620	01085	Riihimäki–Kouvola	Kärkölä	K				60.837131	25.123661
Juupajoki		Jj			Seisake	246+580	00627	Orivesi–Seinäjoki	Juupajoki					61.796788	24.365046
Juurikorpi		Jri			Liikennepaikka	224+898	00535	Kouvola–Kotka, Juurikorpi–Hamina	Kotka	K				60.604162	26.938127
Jyväskylä		Jy			Liikennepaikka	340+970	00240	Jyväskylä–Pieksämäki, Haapamäki–Jyväskylä,	Jyväskylä	K		K	K	62.241455	25.754984
Jämsä		Jäs			Liikennepaikka	284+084	00204	Jämsä–Kaipola, Tampere–Jyväskylä	Jämsä	K			K	61.865627	25.173294
Jämsänkoski		Jsk			Liikennepaikka	287+917	00205	Tampere–Jyväskylä	Jämsä	K		K	K	61.89613	25.171247
Järvelä		Jr			Liikennepaikka	103+596	00095	Riihimäki–Kouvola	Kärkölä	K			K	60.867325	25.274659
JÄRVENPÄÄ		Jvp			Osiin jaettu liikennepaikka	–	–	Helsinki–Riihimäki		K				#N/A	#N/A
Järvenpää asema	Träskända	Jp	Järvenpää		Liikennepaikan osa	36+786	00025		Järvenpää					60.473684	25.090796
Saunakallio		Sau			Liikennepaikan osa	38+846	00806		Järvenpää			K		60.487305	25.065568
Purola		Pur			Liikennepaikan osa	40+533	00564		Järvenpää	K				60.500329	25.050225
Kaipiainen		Kpa			Liikennepaikka	214+451	00485	Kouvola–Joensuu	Kouvola	K		K	K	60.900137	27.117721
Kaipola		Kla			Liikennepaikka	290+303	00656	Jämsä–Kaipola	Jämsä			K	K	61.816678	25.214721
Kaitjärvi		Kjr			Liikennepaikka	226+912	00944	Kouvola–Joensuu	Luumäki	K				60.910768	27.346311
Kajaani	Kajana	Kaj			Liikennepaikka	633+491	00387	Pieksämäki–Kontiomäki, Kajaani–Lamminniemi	Kajaani	K			K	64.219716	27.738374
Kaleton		Ktn			Linjavaihde	320+875	00697	Haapamäki–Jyväskylä	Keuruu					62.239687	24.791661
Kalkku		Kau			Liikennepaikka	199+471	00639	Lielahti–Kokemäki	Tampere	K		K		61.496551	23.572333
Kalliovarasto		Kao			Linjavaihde	644+770	01090	Pieksämäki–Kontiomäki	Kajaani			K	K	64.281152	27.909191
Kalvitsa		Ksa			Liikennepaikka	330+634	00548	Kouvola–Pieksämäki	Mikkeli	K			K	61.910592	27.285129
Kangas		Kgs			Liikennepaikka	642+466	01092	Seinäjoki–Oulu	Ylivieska	K				64.143616	24.71276
Kannelmäki	Gamlas	Kan			Liikennepaikka	9+300	00658	Huopalahti–Havukoski	Helsinki	K				60.239562	24.877004
Kannonkoski		Ksi			Liikennepaikka	488+694	00256	Äänekoski–Haapajärvi	Kannonkoski	M				62.983598	25.270005
Kannus		Kns			Liikennepaikka	591+582	00317	Seinäjoki–Oulu	Kannus	K				63.898425	23.915361
Karhejärvi		Krr			Liikennepaikka	224+902	01095	Tampere–Seinäjoki	Ylöjärvi	K				61.750017	23.390356
Karhukangas		Khg			Liikennepaikka	622+897	01097	Seinäjoki–Oulu	Ylivieska	K				64.024376	24.43962
Karjaa	Karis	Kr			Liikennepaikka	157+817	00060	Helsinki–Turku satama, Hyvinkää–Karjaa, Karjaa–Hanko	Raasepori	K			K	60.068724	23.66126
Karkku		Kru			Liikennepaikka	230+733	00178	Lielahti–Kokemäki	Sastamala	K				61.443314	23.049129
Karviainen		Kar			Liikennepaikka	247+320	01100	Toijala–Turku	Aura	K				60.62317	22.558744
Kattilaharju		Kth			Liikennepaikka	205+556	01319	Kouvola–Joensuu	Kouvola	K				60.880135	26.959698
Kauhava		Kha			Liikennepaikka	455+728	00299	Seinäjoki–Oulu	Kauhava	K			K	63.099643	23.0353
Kauklahti	Köklax	Klh	Kauklahti		Liikennepaikka	24+277	00065	Helsinki–Turku satama	Espoo					60.189456	24.600354
Kaulinranta		Klr			Liikennepaikka	963+350	00790	Tornio–Kolari	Ylitornio	K				66.466907	23.712767
Kauniainen	Grankulla	Kni			Liikennepaikka	16+054	00067	Helsinki–Turku satama	Kauniainen	K			K	60.211939	24.730884
Kauppilanmäki		Kpl			Liikennepaikka	568+751	00423	Pieksämäki–Kontiomäki	Iisalmi	K				63.709557	27.227847
Kausala		Ka			Seisake	169+425	00477	Riihimäki–Kouvola	Iitti					60.885347	26.329366
Keitelepohja		Ktp			Liikennepaikka	519+256	00257	Äänekoski–Haapajärvi	Viitasaari	M			K	63.192764	25.54797
Kekomäki		Kek			Liikennepaikka	79+288	01101	Riihimäki–Kouvola	Hausjärvi	K				60.750527	24.911994
KEMI		Kmi			Osiin jaettu liikennepaikka	–	–	Oulu–Laurila, Kemi–Ajos		K				#N/A	#N/A
Kemi asema		Kem	Kemi		Liikennepaikan osa (Kemi)	858+300	00347	Oulu–Laurila, Kemi–Ajos	Kemi			K	K	65.736749	24.574339
Kemi Sahansaari		Shs			Liikennepaikan osa (Kemi)	861+275	01363	Oulu–Laurila	Kemi			K		65.757307	24.550275
Lautiosaari		Li			Liikennepaikan osa (Kemi)	863+064	00829	Lautiosaari–Elijärvi, Oulu–Laurila	Kemi	K				65.779047	24.565183
Kemijärvi		Kjä			Liikennepaikka	1056+399	00367	Kemijärvi–Kelloselkä, Laurila–Kemijärvi	Kemijärvi	K		K	K	66.724273	27.403715
Kempele		Kml			Liikennepaikka	741+075	00769	Seinäjoki–Oulu	Kempele	K			K	64.912904	25.514546
Kera		Kea			Seisake	14+536	00621	Helsinki–Turku satama	Espoo					60.216573	24.75564
KERAVA		Kev			Osiin jaettu liikennepaikka	–	–	Helsinki–Riihimäki, Kerava–Hakosilta, Kerava–Sköldvik,		K				#N/A	#N/A
Kerava asema	Kervo	Ke	Kerava		Liikennepaikan osa (Kerava)	28+869	00020		Kerava				K	60.404297	25.106028
Kytömaa		Kyt			Liikennepaikan osa (Kerava)	31+274	01111		Kerava					60.425639	25.110001
Kerimäki		Kiä			Liikennepaikka	495+531	00522	Savonlinna–Parikkala	Savonlinna	K			K	61.861412	29.114053
Kesälahti		Kti			Liikennepaikka	428+003	00966	Kouvola–Joensuu	Kitee	K			K	61.887467	29.802865
Keuruu		Keu			Liikennepaikka	316+041	00235	Haapamäki–Jyväskylä	Keuruu	K				62.255309	24.707325
Kilo		Kil			Seisake	13+035	00580	Helsinki–Turku satama	Espoo					60.217939	24.782393
Kilpua		Kua			Liikennepaikka	668+910	01115	Seinäjoki–Oulu	Oulainen	K				64.346567	24.961514
Kinahmi		Knh			Linjavaihde	508+922	00873	Siilinjärvi–Viinijärvi	Kuopio			K		63.142738	27.951398
Kinni		Kii			Liikennepaikka	247+982	01120	Kouvola–Pieksämäki	Mäntyharju	K				61.306328	26.846707
Kirjola		Kij			Linjavaihde	384+475	01123	Kouvola–Joensuu	Parikkala			K		61.536416	29.520088
Kirkkonummi	Kyrkslätt	Kkn			Liikennepaikka	37+503	00063	Helsinki–Turku satama	Kirkkonummi	K			K	60.119648	24.438814
Kirkniemi	Gerknäs	Krn			Liikennepaikka	136+261	00079	Hyvinkää–Karjaa	Lohja	K		K	K	60.175824	23.963456
Kitee		Kit			Liikennepaikka	460+016	00453	Kouvola–Joensuu	Kitee	K			K	62.142774	30.049014
Kiukainen		Kn			Liikennepaikka	297+395	00169	Kokemäki–Rauma	Eura	K				61.209665	22.089236
Kiuruvesi		Krv			Liikennepaikka	583+985	00417	Iisalmi–Ylivieska	Kiuruvesi	K		K	K	63.640907	26.611334
Kivesjärvi		Kvj			Liikennepaikka	878+146	00378	Oulu–Kontiomäki	Paltamo	K				64.468856	27.471464
Kivistö		Ktö			Seisake	18+279	01330	Huopalahti–Havukoski	Vantaa					60.314607	24.846938
Kohtavaara		Koh			Seisake	775+774	00848	Joensuu–Nurmes	Nurmes					63.514758	29.287006
Koivu		Kvu			Liikennepaikka	923+373	00362	Laurila–Kemijärvi	Tervola	K			K	66.16981	25.206795
Koivuhovi	Björkgård	Kvh			Seisake	17+861	00675	Helsinki–Turku satama	Espoo					60.207144	24.701273
Koivukylä	Björkby	Kvy			Seisake	19+440	00559	Helsinki–Riihimäki	Vantaa					60.323284	25.059797
Kokemäki	Kumo	Kki			Liikennepaikka	284+442	00170	Lielahti–Kokemäki, Kokemäki–Rauma, Kokemäki–Pori	Kokemäki	K			K	61.254199	22.30335
Kokkola	Karleby	Kok			Liikennepaikka	551+441	00312	Kokkola–Ykspihlaja, Seinäjoki–Oulu	Kokkola	K		K	K	63.834429	23.131096
Kolari		Kli			Liikennepaikka	1067+206	00358	Tornio–Kolari	Kolari	K			K	67.348706	23.836254
Kolho		Klo			Seisake	286+265	00199	Orivesi–Seinäjoki	Mänttä-Vilppu					62.128049	24.507444
Kolppi	Kållby	Kpi			Liikennepaikka	525+100	00309	Seinäjoki–Oulu	Pedersören ku	K			K	63.62756	22.898299
Kommila		Kmm			Liikennepaikka	429+700	00500	Varkaus–Kommila	Varkaus			K	K	62.325423	27.887689
Komu		Kom			Linjavaihde	607+174	00758	Iisalmi–Ylivieska	Pyhäjärvi			K		63.663536	26.153932
Kontiolahti		Khi			Liikennepaikka	640+295	00463	Joensuu–Nurmes	Kontiolahti	K			K	62.732254	29.857039
Kontiomäki		Kon			Liikennepaikka	658+786	00390	Nurmes–Kontiomäki, Oulu–Kontiomäki,	Paltamo	K		K	K	64.338219	28.114694
Koria		Kra			Seisake	185+374	00478	Riihimäki–Kouvola	Kouvola					60.847067	26.60131
Korkeakoski		Kas			Liikennepaikka	247+910	00193	Orivesi–Seinäjoki	Juupajoki	K		K	K	61.807686	24.375464
Korso		Krs			Seisake	22+740	00019	Helsinki–Riihimäki	Vantaa					60.35129	25.078507
Korvensuo		Ksu			Liikennepaikka	50+500	01128	Kerava–Hakosilta	Mäntsälä	K				60.582687	25.218194
KOTKA		Kot			Osiin jaettu liikennepaikka	–	–	Kouvola–Kotka, Kotka Hovinsaari–Kotka Mussalo		M				#N/A	#N/A
Kotka Hovinsaari		Hos			Liikennepaikan osa (Kotka)	240+400	00980		Kotka			K	K	60.483022	26.919254
Kotka tavara		Ktt			Liikennepaikan osa (Kotka)	240+870	01130		Kotka				K	60.478803	26.919356
Paimenportti		Pti			Liikennepaikan osa (Kotka)	240+770	00768		Kotka					60.479685	26.919372
Kotka asema		Kta	Kotka		Liikennepaikan osa (Kotka)	242+775	00532		Kotka			K	K	60.464388	26.928611
Kotkan satama		Kts			Liikennepaikan osa (Kotka)	243+579	00644		Kotka			K	K	60.466492	26.934952
Kotolahti		Koo			Liikennepaikan osa (Kotka)	245+203	01329		Kotka			K	K	60.445244	26.898503
Kotka Mussalo		Mss			Liikennepaikan osa (Kotka)	247+057	00557		Kotka			K	K	60.431802	26.89751
KOUVOLA		Kvl			Osiin jaettu liikennepaikka	–	–	Riihimäki–Kouvola, Kouvola–Pieksämäki, Kouvola–Kotka,		M				#N/A	#N/A
Kouvola asema		Kv	Kouvola		Liikennepaikan osa	191+540	00480		Kouvola			K	K	60.865613	26.704588
Kouvola lajittelu		Kvla			Liikennepaikan osa	192+570	01132		Kouvola			K	K	60.865734	26.723643
Kouvola tavara		Kvt			Liikennepaikan osa	194+050	01134		Kouvola			K	K	60.86857	26.750447
Kouvola Oikoraide		Oik			Liikennepaikan osa	194+460	01133		Kouvola					60.86715	26.764691
Kullasvaara		Kuv			Liikennepaikan osa	197+300	01320		Kouvola				K	60.872249	26.809881
Kovjoki		Koi			Liikennepaikka	508+925	00745	Seinäjoki–Oulu	Uusikaarlepyy	K				63.521231	22.69252
Kruunupyy	Kronoby	Kpy			Liikennepaikka	537+585	00311	Seinäjoki–Oulu	Kruunupyy	K		K	K	63.7216	23.034045
Kuivasjärvi		Kis			Liikennepaikka	276+327	01137	Tampere–Seinäjoki	Parkano	K				62.174449	23.036413
KUOPIO		Kpo			Osiin jaettu liikennepaikka	–	–	Pieksämäki–Kontiomäki		M				#N/A	#N/A
Kuopio asema		Kuo	Kuopio		Liikennepaikan osa (Kuopio)	464+590	00408		Kuopio				K	62.897218	27.679581
Kuopio tavara		Kuot			Liikennepaikan osa (Kuopio)	465+500	01139		Kuopio			K	K	62.897796	27.697282
Kuopio Iloharju		Ilh			Liikennepaikan osa (Kuopio)	462+550	01366		Kuopio					62.8913	27.644033
Kurkimäki		Krm			Liikennepaikka	444+074	00406	Pieksämäki–Kontiomäki	Kuopio	K			K	62.771886	27.517621
Kuurila		Ku			Liikennepaikka	138+769	00626	Riihimäki–Tampere	Hämeenlinna	K				61.133691	23.994903
Kuusankoski		Kuk			Liikennepaikka	199+290	00537	Kouvola–Kuusankoski	Kouvola	M		K	K	60.921019	26.656252
Kuusikkoniemi		Ksn			Liikennepaikka	906+763	01356	Oulu–Kontiomäki	Paltamo	K				64.392909	27.919899
Kylänlahti		Kyn			Seisake	742+912	00937	Joensuu–Nurmes	Lieksa					63.361403	29.75243
Kymi	Kymmene	Ky			Liikennepaikka	233+450	00534	Kouvola–Kotka	Kotka	M		K	K	60.539229	26.90714
Kyminlinna		Kln			Seisake	237+255	00981	Kouvola–Kotka	Kotka					60.508258	26.895812
Kyrö		Kö			Liikennepaikka	232+875	00139	Toijala–Turku	Karinainen	K			K	60.702716	22.748862
Kälviä	Kelviå	Klv			Liikennepaikka	570+273	00316	Seinäjoki–Oulu	Kokkola	K				63.863974	23.493255
Köykkäri		Kök			Liikennepaikka	486+491	01144	Seinäjoki–Oulu	Kauhava	K				63.343804	22.772334
Laajavuori		Lav			Liikennepaikka	14+527	01341	Huopalahti–Havukoski	Vantaa	K				60.282453	24.851146
Lahdenperä		Lpr			Liikennepaikka	267+080	01149	Tampere–Jyväskylä	Jämsä	K				61.811782	24.944751
Lahnaslampi		Lhn			Liikennepaikka	880+297	00871	Vuokatti–Lahnaslampi	Sotkamo			K		64.120658	28.072026
Lahti	Lahtis	Lh			Liikennepaikka	130+170	00100	Riihimäki–Kouvola, Lahti–Heinola, Lahti–Mukkula,	Lahti	K		K	K	60.97647	25.657397
Laihia	Laihela	Lai			Liikennepaikka	468+916	00293	Seinäjoki–Vaasa	Laihia	K			K	62.990138	22.003444
Lakiala		Lak			Liikennepaikka	209+214	00212	Tampere–Seinäjoki	Ylöjärvi	K			K	61.625873	23.526965
Lamminkoski		Lmk			Liikennepaikka	268+785	01151	Tampere–Seinäjoki	Parkano	K				62.107789	23.061226
Lamminniemi		Lam			Liikennepaikka	636+664	00845	Kajaani–Lamminniemi	Kajaani			K	K	64.232062	27.702541
Lapinjärvi	Lappträsk	Lpj			Liikennepaikka	185+432	00108	Lahti–Loviisan satama	Lapinjärvi	M				60.599097	26.127856
Lapinlahti		Lna			Liikennepaikka	525+604	00416	Pieksämäki–Kontiomäki	Lapinlahti	K			K	63.360666	27.393552
Lappeenranta	Villmanstrand	Lr			Liikennepaikka	287+726	00495	Kouvola–Joensuu, Lappeenranta–Mustolan satama	Lappeenranta	K		K	K	61.047973	28.195304
Lappila		Laa			Seisake	97+693	00094	Riihimäki–Kouvola	Kärkölä					60.848954	25.17423
Lappohja	Lappvik	Lpo			Liikennepaikka	189+639	00075	Karjaa–Hanko	Hanko	K		K	K	59.904082	23.236919
Lapua	Lappo	Lpa			Liikennepaikka	441+094	00298	Seinäjoki–Oulu	Lapua	K		K	K	62.971338	23.015112
Larvakytö		Lyö			Liikennepaikka	333+057	01153	Tampere–Seinäjoki	Seinäjoki	K				62.680182	22.935915
Laukaa		Lau			Liikennepaikka	401+193	00249	Jyväskylä–Äänekoski	Laukaa	K				62.422807	25.924359
Laurila		Lla			Liikennepaikka	865+776	00360	Laurila–Kemijärvi, Oulu–Laurila, Laurila–Tornio-raja	Keminmaa	K				65.796833	24.534062
Lauritsala		Lrs			Liikennepaikka	291+936	00498	Kouvola–Joensuu	Lappeenranta	K		K	K	61.066415	28.259631
Leinelä	Lejle	Lnä			Seisake	31+123	01333	Huopalahti–Havukoski	Vantaa					60.322641	25.039419
Lentoasema	Flygplatsen	Len			Seisake	26+575	01332	Huopalahti–Havukoski	Vantaa					60.315732	24.968343
Lelkola		Lkl			Liikennepaikka	276+011	00993	Kouvola–Pieksämäki	Hirvensalmi	K				61.526751	26.966496
Lempäälä		Lpä			Liikennepaikka	165+928	00156	Riihimäki–Tampere	Lempäälä	K				61.314233	23.755094
Leppäkoski		Lk			Liikennepaikka	87+830	00043	Riihimäki–Tampere	Janakkala	K				60.87288	24.695884
Leppävaara	Alberga	Lpv			Liikennepaikka	11+249	00068	Helsinki–Turku satama	Espoo	K			K	60.21948	24.813541
Leteensuo		Lts			Liikennepaikka	123+554	01154	Riihimäki–Tampere	Hattula	K				61.065513	24.232505
Lieksa		Lis			Liikennepaikka	728+121	00468	Joensuu–Nurmes, Lieksa–Pankakoski	Lieksa	K		K	K	63.318195	30.016394
Lielahti		Llh			Liikennepaikka	193+393	00183	Tampere–Seinäjoki, Lielahti–Kokemäki	Tampere	K		K	K	61.510284	23.6817
Lievestuore		Lvt			Liikennepaikka	402+191	00246	Jyväskylä–Pieksämäki	Laukaa	K		K	K	62.259872	26.195893
Liminka	Limingo	Lka			Liikennepaikka	728+483	00338	Seinäjoki–Oulu	Liminka	K			K	64.810176	25.423892
Liminpuro		Lmp			Liikennepaikka	864+792	01354	Oulu–Kontiomäki	Vaala	K				64.538637	27.250167
Lohja	Lojo	Lo			Liikennepaikka	122+965	00081	Hyvinkää–Karjaa	Lohja	K			K	60.265369	24.116408
Loimaa		Lm			Liikennepaikka	208+870	00142	Toijala–Turku	Loimaa	K			K	60.847378	23.060408
Louhela	Klippsta	Loh			Seisake	13+190	00661	Huopalahti–Havukoski	Vantaa					60.270798	24.853299
Loukolampi		Lol			Liikennepaikka	360+013	00861	Kouvola–Pieksämäki	Pieksämäki	K				62.162673	27.203502
Loviisan satama	Lovisa hamn	Lvs			Liikennepaikka	207+209	00106	Lahti–Loviisan satama	Loviisa	M		K	K	60.418261	26.247612
Luikonlahti		Lui			Liikennepaikka	557+061	00411	Siilinjärvi–Viinijärvi	Kaavi	K				62.927654	28.6752
Lusto		Lus			Seisake	509+170	00690	Savonlinna–Parikkala	Savonlinna					61.800548	29.322269
Luumäki		Lä			Liikennepaikka	250+540	00487	Kouvola–Joensuu, Luumäki–Vainikkala-raja	Luumäki	K		K	K	60.944407	27.761801
Lähessuo		Lhs			Liikennepaikka	798+473	01364	Oulu–Laurila	Simo	K				65.400725	25.411155
Länkipohja		Läp			Liikennepaikka	256+024	00203	Tampere–Jyväskylä	Jämsä	K				61.740823	24.813105
Maanselkä		Mlk			Liikennepaikka	836+049	00382	Nurmes–Kontiomäki	Sotkamo	M				63.882203	28.499352
Maaria	St. Marie	Mri			Liikennepaikka	262+070	01166	Toijala–Turku	Turku	K				60.538524	22.365622
Madesjärvi		Md			Liikennepaikka	291+821	00217	Tampere–Seinäjoki	Kurikka	K				62.3116	22.987474
Majajärvi		Mjj			Liikennepaikka	216+317	01168	Tampere–Seinäjoki	Ylöjärvi	K				61.682946	23.469457
Maksniemi		Mkn			Liikennepaikka	845+521	01365	Oulu–Laurila	Ii	K				65.681839	24.810093
Malmi	Malm	Ml			Liikennepaikka	10+900	00017	Helsinki–Riihimäki	Helsinki	K				60.25166	25.011468
Malminkartano	Malmgård	Mlo			Seisake	10+730	00659	Huopalahti–Havukoski	Helsinki					60.249316	24.861283
Mankala		Mka			Liikennepaikka	160+050	01336	Riihimäki–Kouvola	Iitti	K				60.916315	26.182911
Markkala		Mrk			Liikennepaikka	403+737	00896	Pieksämäki–Kontiomäki	Suonenjoki	K				62.54004	27.190465
Martinlaakso	Mårtensdal	Mrl			Seisake	14+010	00662	Huopalahti–Havukoski	Vantaa	K				60.27808	24.852604
Masala	Masaby	Mas			Seisake	29+561	00064	Helsinki–Turku satama	Kirkkonummi					60.158661	24.539106
Matkaneva		Mtv			Liikennepaikka	562+607	01171	Seinäjoki–Oulu	Kokkola	K				63.84089	23.348859
Mattila		Mat			Liikennepaikka	159+906	01172	Riihimäki–Tampere	Lempäälä	K				61.261133	23.758953
Melalahti		Mll			Liikennepaikka	893+280	01355	Oulu–Kontiomäki	Paltamo	K				64.412901	27.659328
Metsäkansa		Msä			Linjavaihde	155+811	00558	Toijala–Valkeakoski	Valkeakoski					61.234303	23.884586
Mikkeli	St. Michel	Mi			Liikennepaikka	305+165	00546	Kouvola–Pieksämäki	Mikkeli	K		K	K	61.687818	27.277969
Misi		Mis			Liikennepaikka	1021+255	00366	Laurila–Kemijärvi	Rovaniemi	M			K	66.617923	26.687235
Mommila		Mla			Seisake	91+430	00093	Riihimäki–Kouvola	Hausjärvi					60.821177	25.075141
Muhos		Mh			Liikennepaikka	788+424	00375	Oulu–Kontiomäki	Muhos	K				64.805398	25.991997
Murtomäki		Mur			Liikennepaikka	613+165	00386	Pieksämäki–Kontiomäki, Murtomäki–Talvivaara,	Kajaani	K				64.064426	27.579581
Mustio	Svartå	Mso			Linjavaihde	143+000	00078	Hyvinkää–Karjaa	Raasepori					60.140408	23.868437
Mustolan satama		Mst			Liikennepaikka	295+515	00077	Lappeenranta–Mustolan satama	Lappeenranta			K		61.059167	28.312624
Muukko		Mko			Liikennepaikka	297+112	01180	Kouvola–Joensuu	Lappeenranta	K				61.088163	28.341566
Muurame		Muu			Liikennepaikka	324+768	00433	Tampere–Jyväskylä	Muurame	K				62.110893	25.651352
Muurola		Mul			Liikennepaikka	948+494	00363	Laurila–Kemijärvi	Rovaniemi	K				66.370875	25.37511
Myllykangas		Mys			Liikennepaikka	815+693	01183	Oulu–Laurila	Ii	K				65.535747	25.272566
Myllykoski		Mki			Seisake	203+630	00536	Kouvola–Kotka	Kouvola	K				60.771013	26.78669
Myllymäki		My			Seisake	333+721	00263	Orivesi–Seinäjoki	Ähtäri					62.524753	24.280965
Myllyoja		Myl			Liikennepaikka	161+727	00606	Lahti–Heinola	Heinola	K		K		61.16369	25.989681
Mynttilä		Myt			Liikennepaikka	270+889	00543	Kouvola–Pieksämäki, Mynttilä–Ristiina	Mäntyharju	K				61.487261	26.923895
Mynämäki		Myn			Liikennepaikka	229+607	00123	Turku–Uusikaupunki	Mynämäki	K				60.650417	21.964129
Myyrmäki	Myrbacka	Myr			Liikennepaikka	12+130	00660	Huopalahti–Havukoski	Vantaa	K				60.261327	24.854751
Mäkkylä		Mäk			Seisake	9+511	00693	Helsinki–Turku satama	Espoo					60.22131	24.842976
Mäntsälä		Mlä			Liikennepaikka	59+210	00027	Kerava–Hakosilta	Mäntsälä	K				60.647258	25.307475
Mäntyharju		Mr			Liikennepaikka	262+680	00544	Kouvola–Pieksämäki	Mäntyharju	K			K	61.421104	26.881746
Mäntyluoto		Mn			Liikennepaikka	342+020	00223	Pori–Mäntyluoto	Pori	K		K	K	61.58996	21.511964
Naantali	Nådendal	Nnl			Liikennepaikka	213+193	00124	Raisio–Naantali	Naantali			K	K	60.469929	22.040037
Naarajärvi		Nri			Liikennepaikka	449+862	00895	Jyväskylä–Pieksämäki	Pieksämäki	K			K	62.283143	27.045557
Nakkila		Nal			Liikennepaikka	308+091	00672	Kokemäki–Pori	Nakkila	K				61.387035	21.969594
Nastola		Nsl			Seisake	146+169	00595	Riihimäki–Kouvola	Lahti					60.935567	25.935467
Niemenpää		Nmp			Liikennepaikka	923+605	01185	Tornio–Kolari	Tornio	K				66.165558	23.92106
Niinimaa		Nii			Linjavaihde	383+155	00285	Orivesi–Seinäjoki	Alavus					62.642246	23.420637
Niinimäki		Nmä			Liikennepaikka	172+534	01324	Riihimäki–Kouvola	Iitti					60.877915	26.384374
Niinisalo		Nns			Liikennepaikka	386+215	00227	Niinisalo–Parkano	Kankaanpää	M		K	K	61.844661	22.481919
Niirala		Nrl			Liikennepaikka	555+846	00446	Niirala-raja–Säkäniemi	Tohmajärvi	M		K	K	62.175021	30.600268
Niirala-raja		Nrlr			Liikennepaikka	554+080	00445	Niirala-raja–Säkäniemi	Tohmajärvi					62.170426	30.632051
Niittylahti		Nth			Liikennepaikka	613+475	00917	Kouvola–Joensuu	Joensuu	K				62.51221	29.845911
Nikkilä	Nickby	Nlä			Seisake	39+176	00022	Kerava–Sköldvik	Sipoo					60.38237	25.26654
Niska		Nsk			Liikennepaikka	825+300	01353	Oulu–Kontiomäki	Utajärvi	K				64.637367	26.533759
Nivala		Nvl			Liikennepaikka	676+878	00328	Iisalmi–Ylivieska	Nivala	K			K	63.936389	24.960768
Nokia		Noa			Liikennepaikka	204+004	00181	Lielahti–Kokemäki	Nokia	K		K	K	61.481059	23.49917
Nummela		Nm			Liikennepaikka	109+368	00084	Hyvinkää–Karjaa	Vihti	K				60.328751	24.316922
Nuojua		Nua			Liikennepaikka	835+979	01361	Oulu–Kontiomäki	Vaala	K			K	64.563433	26.673271
Nurmes		Nrm			Liikennepaikka	784+420	00472	Nurmes–Kontiomäki, Joensuu–Nurmes	Nurmes	K		K	K	63.541078	29.137234
Ohenmäki		Ohm			Linjavaihde	542+264	01190	Pieksämäki–Kontiomäki	Iisalmi				K	63.496332	27.268163
Olli		Olli			Linjavaihde	45+734	00570	Kerava–Sköldvik, Olli–Porvoo	Porvoo	K				60.382804	25.374228
Orimattila		Om			Linjavaihde	150+407	00109	Lahti–Loviisan satama	Orimattila					60.814493	25.748738
Orivesi		Ov			Liikennepaikka	228+276	00190	Tampere–Jyväskylä, Orivesi–Seinäjoki	Orivesi	K			K	61.650095	24.368047
Orivesi keskusta		Ovk			Seisake	231+512	01316	Orivesi–Seinäjoki	Orivesi					61.673906	24.369838
Otanmäki		Otm			Liikennepaikka	638+822	00385	Murtomäki–Otanmäki	Kajaani			K		64.112027	27.092351
Otava		Ot			Liikennepaikka	290+521	00545	Kouvola–Pieksämäki, Otava–Otavan satama	Mikkeli	K			K	61.640827	27.071576
Oulainen		Ou			Liikennepaikka	657+850	00322	Seinäjoki–Oulu	Oulainen	K			K	64.269509	24.82098
OULU		Oul			Osiin jaettu liikennepaikka	–	–	Seinäjoki–Oulu, Oulu–Kontiomäki, Oulu–Laurila		M				#N/A	#N/A
Oulunlahti		Oll			Liikennepaikan osa (Oulu)	746+876	01351		Oulu	K				64.962428	25.504832
Oulu Nokela		Nok			Liikennepaikan osa (Oulu)	750+030	01195		Oulu			K	K	64.988959	25.476067
Oulu Oritkari		Ori			Liikennepaikan osa (Oulu)	751+180	01196		Oulu			K	K	64.98925	25.452448
Oulu tavara		Olt			Liikennepaikan osa (Oulu)	751+360	01197		Oulu			K	K	65.000913	25.470291
Oulu asema	Uleåborg	Ol	Oulu		Liikennepaikan osa (Oulu)	752+778	00370		Oulu				K	65.012409	25.486121
Oulu Tuira		Tua			Liikennepaikan osa (Oulu)	755+510	00339		Oulu			K	K	65.02871	25.474942
Paimio	Pemar	Po			Liikennepaikka	171+885	00128	Helsinki–Turku satama	Paimio	K				60.459453	22.685879
Palopuro		Plp			Liikennepaikka	54+535	00562	Helsinki–Riihimäki	Hyvinkää	K				60.601471	24.906231
Paltamo		Pto			Liikennepaikka	901+579	00379	Oulu–Kontiomäki	Paltamo	K				64.40061	27.82218
Parikkala		Par			Liikennepaikka	387+302	00510	Kouvola–Joensuu, Savonlinna–Parikkala	Parikkala	K			K	61.55855	29.502884
Parkano		Pko			Liikennepaikka	262+483	00215	Parkano–Niinisalo, Tampere–Seinäjoki	Parkano	K			K	62.051967	23.078439
Parola		Prl			Liikennepaikka	115+764	00049	Riihimäki–Tampere	Hattula	K		K	K	61.049922	24.366497
Patokangas		Ptg			Liikennepaikka	1064+591	01346	Kemijärvi–Patokangas	Kemijärvi			K		66.724902	27.519974
Pello		Pel			Liikennepaikka	1002+632	00356	Tornio–Kolari	Pello	K				66.78466	23.993374
Peltosalmi		Pmi			Linjavaihde	545+355	00882	Pieksämäki–Kontiomäki	Iisalmi			K		63.520846	27.246161
Peräseinäjoki		Psj			Liikennepaikka	318+481	00687	Tampere–Seinäjoki	Seinäjoki	K				62.549545	22.941988
Pesiökylä		Psk			Liikennepaikka	732+752	00393	Kontiomäki–Ämmänsaari	Suomussalmi	M			K	64.926213	28.569552
Petäjävesi		Pvi			Liikennepaikka	343+357	00237	Haapamäki–Jyväskylä	Petäjävesi	K			K	62.256974	25.189337
PIEKSÄMÄKI		Pie			Osiin jaettu liikennepaikka	–	–	Kouvola–Pieksämäki, Pieksämäki–Kontiomäki,	Pieksämäki	M				#N/A	#N/A
Pieksämäki asema		Pm	Pieksämäki		Liikennepaikan osa	376+000	00400		Pieksämäki			K	K	62.301253	27.16753
Pieksämäki Temu		Tmu			Liikennepaikan osa	377+340	01212		Pieksämäki			K	K	62.31317	27.169853
Pieksämäki lajittelu		Pmla			Liikennepaikan osa	378+640	01210		Pieksämäki			K	K	62.324528	27.175321
Pieksämäki tavara		Pmt			Liikennepaikan osa	379+960	01211		Pieksämäki			K	K	62.335855	27.182414
Pietarsaari	Jakobstad	Pts			Liikennepaikka	528+780	00306	Pännäinen–Pietarsaari, Pietarsaari–Alholma	Pietarsaari	M				63.674326	22.714689
Pihlajavesi		Ph			Liikennepaikka	312+500	00261	Orivesi–Seinäjoki	Keuruu	K				62.346234	24.395608
Pihtipudas		Pp			Liikennepaikka	540+605	00258	Äänekoski–Haapajärvi	Pihtipudas	M			K	63.371806	25.556278
Piikkiö	Pikis	Pik			Liikennepaikka	182+785	00127	Helsinki–Turku satama	Kaarina	K			K	60.423105	22.51586
Pikkarala		Pkl			Liikennepaikka	771+765	00819	Oulu–Kontiomäki	Oulu	K				64.912694	25.754062
Pitkämäki		Ptk			Liikennepaikka	789+619	01350	Nurmes–Kontiomäki	Nurmes	K		K		63.570689	29.060715
Pitkäkallio		Pio			Liikennepaikka	204+324	01358	Kouvola–Kotka	Kouvola	K				60.765446	26.792637
Pitäjänmäki	Sockenbacka	Pjm			Seisake	8+474	00069	Helsinki–Turku satama	Helsinki					60.223412	24.859649
Pohjankuru	Skuru	Pku			Liikennepaikka	94+907	00059	Helsinki–Turku satama	Raasepori	K		K	K	60.098215	23.551872
Pohjois-Haaga	Norra Haga	Poh			Seisake	8+050	00657	Huopalahti–Havukoski	Helsinki					60.230156	24.883319
Pohjois-Louko		Plu			Liikennepaikka	329+329	01214	Tampere–Seinäjoki	Seinäjoki	K				62.646837	22.941522
Poikkeus		Pkk			Liikennepaikka	254+744	01216	Tampere–Seinäjoki	Parkano	K				61.989112	23.137954
Poiksilta		Poi			Linjavaihde	416+728	00965	Kouvola–Joensuu	Kitee					61.790643	29.741895
Pori	Björneborg	Pri			Liikennepaikka	322+278	00220	Pori–Aittaluoto, Pori–Mäntyluoto, Kokemäki–Pori	Pori	K		K	K	61.477212	21.786607
Puhos		Pus			Liikennepaikka	452+808	00919	Kouvola–Joensuu	Kitee	K		K	K	62.088594	29.976082
Puistola	Parkstad	Pla			Seisake	14+050	00553	Helsinki–Riihimäki	Helsinki					60.276313	25.036683
Pukinmäki	Bocksbacka	Pmk			Seisake	9+442	00551	Helsinki–Riihimäki	Helsinki					60.242216	24.993288
Pulsa		Pl			Liikennepaikka	262+491	01217	Luumäki–Vainikkala-raja	Lappeenranta	K				60.927309	27.972716
Punkaharju		Pun			Liikennepaikka	515+111	00517	Savonlinna–Parikkala	Savonlinna	K		K	K	61.761151	29.382354
Pyhäkumpu		Pyk			Liikennepaikka	615+415	00757	Pyhäkumpu erkanemisvaihde– Pyhäkumpu	Pyhäjärvi			K		63.662046	26.042336
Pyhäkumpu erkanemisvaihde		Pye			Liikennepaikka	613+511	01218	Iisalmi–Ylivieska, Pyhäkumpu erkanemisvaihde– Pyhäkumpu	Pyhäjärvi	K				63.677555	26.030169
Pyhäsalmi		Phä			Liikennepaikka	615+934	00331	Iisalmi–Ylivieska	Pyhäjärvi	K			K	63.682935	25.982615
Pännäinen	Bennäs	Pnä	Pietarsaari-Pedersöre		Liikennepaikka	518+604	00305	Pännäinen–Pietarsaari, Seinäjoki–Oulu	Pedersören ku	K				63.595382	22.790363
Raahe	Brahestad	Rhe			Liikennepaikka	726+726	00335	Raahe–Rautaruukki, Tuomioja–Raahe	Raahe	K		K		64.683364	24.490632
Raippo		Rpo			Liikennepaikka	270+052	00490	Luumäki–Vainikkala-raja	Lappeenranta	K		K		60.912094	28.10607
Raisio	Reso	Rai			Liikennepaikka	207+829	00125	Turku–Uusikaupunki, Raisio–Naantali	Raisio	K		K	K	60.485475	22.130194
Rajamäki		Rm			Liikennepaikka	72+267	00088	Hyvinkää–Karjaa	Nurmijärvi				K	60.532706	24.761636
Rajaperkiö		Rjp			Liikennepaikka	448+396	01220	Seinäjoki–Oulu	Lapua	K				63.036254	23.013344
Rantasalmi		Rmi			Liikennepaikka	445+165	00524	Huutokoski–Savonlinna	Rantasalmi	K			K	62.014348	28.276594
Rasinsuo		Ras			Liikennepaikka	258+510	01222	Kouvola–Joensuu	Luumäki	K				60.97619	27.892136
Ratikylä		Rlä			Liikennepaikka	284+344	00596	Tampere–Seinäjoki	Kihniö	K				62.245426	23.011184
Rauha		Rah			Liikennepaikka	318+490	00501	Kouvola–Joensuu	Lappeenranta	K				61.178295	28.687578
Rauhalahti		Rhl			Linjavaihde	380+510	01225	Jyväskylä–Pieksämäki	Jyväskylä			K		62.239957	25.801006
Rauma	Raumo	Rma			Liikennepaikka	331+659	00165	Kokemäki–Rauma	Rauma	K		K	K	61.132361	21.492431
Raunio		Rio			Liikennepaikka	464+845	01227	Seinäjoki–Oulu	Kauhava	K				63.171521	22.955164
Rautaruukki		Rat			Liikennepaikka	730+050	00750	Raahe–Rautaruukki	Raahe			K	K	64.658708	24.443464
Rautjärvi		Rjä			Liikennepaikka	345+788	00506	Kouvola–Joensuu	Rautjärvi	K				61.300812	29.085136
Rautpohja		Rph			Linjavaihde	372+829	01232	Haapamäki–Jyväskylä	Jyväskylä			K		62.232539	25.690392
Rekola	Räckhals	Rkl			Seisake	20+615	00554	Helsinki–Riihimäki	Vantaa					60.332871	25.068666
Retretti		Ree			Seisake	507+500	00793	Savonlinna–Parikkala	Savonlinna					61.803308	29.294294
RIIHIMÄKI		Rii			Osiin jaettu liikennepaikka	–	–	Helsinki–Riihimäki, Riihimäki–Kouvola, Riihimäki–Tampere		K				#N/A	#N/A
Riihimäki Arolampi		Arp			Liikennepaikan osa	66+600	01235		Hausjärvi					60.697135	24.818591
Riihimäki tavara		Rit			Liikennepaikan osa	68+773	01240		Riihimäki			K	K	60.714716	24.802312
Riihimäki lajittelu		Rila			Liikennepaikan osa	70+068	01238		Riihimäki				K	60.725385	24.792909
Riihimäki asema		Ri	Riihimäki		Liikennepaikan osa	71+410	00040		Riihimäki			K	K	60.736078	24.781241
Riijärvi		Rjr			Liikennepaikka	502+567	01327	Seinäjoki–Oulu	Uusikaarlepyy	K				63.465864	22.66527
Riippa		Rpa			Liikennepaikka	577+477	00747	Seinäjoki–Oulu	Kokkola	K			K	63.868454	23.637151
Ristiina		Rst			Liikennepaikka	291+162	00770	Mynttilä–Ristiina	Mikkeli	M		K	K	61.461611	27.264338
Ristijärvi		Rjv			Liikennepaikka	676+804	00391	Kontiomäki–Ämmänsaari	Ristijärvi	K				64.488179	28.185498
Rovaniemi		Roi			Liikennepaikka	971+775	00364	Laurila–Kemijärvi	Rovaniemi	K		K	K	66.497675	25.705329
Ruha		Rha			Liikennepaikka	431+132	00742	Seinäjoki–Oulu	Lapua	K				62.887473	22.978534
Runni		Rnn			Seisake	568+518	00886	Iisalmi–Ylivieska	Iisalmi					63.602052	26.886487
Ruukki		Rki			Liikennepaikka	705+228	00337	Seinäjoki–Oulu	Siikajoki	K			K	64.660373	25.0982
Ruusumäki		Rsm			Liikennepaikka	20+282	01338	Huopalahti–Havukoski	Vantaa	K				60.31566	24.878314
Ryttylä		Ry			Liikennepaikka	80+770	00042	Riihimäki–Tampere	Hausjärvi	K		K	K	60.818048	24.758186
Röyttä		Röy			Liikennepaikka	893+917	00833	Tornio–Röyttä	Tornio			K	K	65.765795	24.162896
Saakoski		Saa			Liikennepaikka	305+373	00668	Tampere–Jyväskylä	Jyväskylä	K				61.990369	25.410596
Saari		Sr			Liikennepaikka	405+246	00964	Kouvola–Joensuu	Parikkala	K			K	61.695058	29.660865
Saarijärvi		Srj			Liikennepaikka	452+723	00254	Äänekoski–Haapajärvi	Saarijärvi	M			K	62.700076	25.283095
Salminen		Sln			Liikennepaikka	426+718	00405	Pieksämäki–Kontiomäki, Pieksämäki–Kontiomäki	Suonenjoki	K			K	62.676239	27.286121
Salo		Slo			Liikennepaikka	143+981	00055	Helsinki–Turku satama	Salo	K			K	60.384777	23.121448
Sammalisto		Sam			Liikennepaikka	74+487	01246	Riihimäki–Tampere	Riihimäki	K				60.763711	24.78372
Santala	Sandö	Sta			Seisake	196+908	00827	Karjaa–Hanko	Hanko					59.875008	23.121052
Saunamäki		Smä			Liikennepaikka	180+534	01325	Riihimäki–Kouvola	Iitti					60.852337	26.519052
Savio		Sav			Seisake	26+265	00555	Helsinki–Riihimäki	Kerava					60.381296	25.097803
SAVONLINNA		Svl			Osiin jaettu liikennepaikka	–	–	Savonlinna–Parikkala, Huutokoski–Savonlinna						#N/A	#N/A
Savonlinna asema	Nyslott	Sl	Savonlinna		Liikennepaikan osa	482+797	00521		Savonlinna	K				61.8689	28.888266
Pääskylahti		Pky			Liikennepaikan osa	484+913	00519		Savonlinna	K			K	61.862291	28.924534
SEINÄJOKI		Sei			Osiin jaettu liikennepaikka	–	–	Tampere–Seinäjoki, Seinäjoki–Oulu, Orivesi–Seinäjoki,		M				#N/A	#N/A
Seinäjoki tavara		Skt			Liikennepaikan osa	416+580	01252		Seinäjoki			K	K	62.784847	22.866289
Seinäjoki asema		Sk	Seinäjoki		Liikennepaikan osa	418+001	00280		Seinäjoki			K	K	62.792016	22.844217
Seinäjoki Rahkola		Rla			Liikennepaikan osa	412+612	01362		Seinäjoki	K			K	62.762843	22.9254
Selänpää		Spä			Liikennepaikka	209+869	00539	Kouvola–Pieksämäki	Kouvola	K				61.007729	26.714088
Sieppijärvi		Spj			Liikennepaikka	1045+904	00796	Tornio–Kolari	Kolari	K				67.159514	23.867383
Sievi		Svi			Liikennepaikka	613+371	00319	Seinäjoki–Oulu	Sievi	K				63.978137	24.278697
Siikamäki		Skä			Liikennepaikka	389+747	00429	Pieksämäki–Joensuu	Pieksämäki	K				62.289158	27.40773
SIILINJÄRVI		Sii			Osiin jaettu liikennepaikka	–	–	Siilinjärvi–Viinijärvi, Pieksämäki–Kontiomäki		K				#N/A	#N/A
Siilinjärvi asema		Sij			Liikennepaikan osa	489+718	00413		Siilinjärvi	K		K	K	63.074953	27.666561
Ruokosuo		Rsu			Liikennepaikan osa	494+735	01342		Siilinjärvi	K		K		63.09744	27.740113
Simo		Sim			Liikennepaikka	833+715	00346	Oulu–Laurila	Simo	K				65.663135	25.060752
Simpele		Spl			Liikennepaikka	368+317	00507	Kouvola–Joensuu	Rautjärvi	K		K	K	61.424787	29.371696
Sipilä		Sip			Liikennepaikka	68+697	01254	Kerava–Hakosilta, Kerava–Hakosilta	Mäntsälä	K				60.711122	25.420346
Sisättö		Stö			Liikennepaikka	235+602	01257	Tampere–Seinäjoki	Ikaalinen	K				61.838125	23.310976
Siuntio	Sjundeå	Sti			Liikennepaikka	51+285	00576	Helsinki–Turku satama	Siuntio	K				60.140648	24.221671
Siuro		Siu			Liikennepaikka	213+355	00179	Lielahti–Kokemäki	Nokia	K			K	61.47445	23.33911
Skogby		Sgy			Seisake	184+680	00817	Karjaa–Hanko	Raasepori					59.926668	23.312403
Sköldvik	Kilpilahti	Sld			Liikennepaikka	56+360	00560	Kerava–Sköldvik	Porvoo	M		K	K	60.305964	25.481846
Soinlahti		Soa			Linjavaihde	559+651	00422	Pieksämäki–Kontiomäki	Iisalmi			K	K	63.634206	27.204458
Sorsasalo		Sor			Linjavaihde	473+754	00870	Pieksämäki–Kontiomäki	Kuopio			K		62.953371	27.68315
Sukeva		Skv			Liikennepaikka	589+222	00424	Pieksämäki–Kontiomäki	Sonkajärvi	K			K	63.864618	27.422313
Suolahti		Suo			Liikennepaikka	417+796	00251	Jyväskylä–Äänekoski	Äänekoski	K		K	K	62.561352	25.851545
Suonenjoki		Snj			Liikennepaikka	413+842	00404	Pieksämäki–Kontiomäki, Suonenjoki–Yläkoski	Suonenjoki	K			K	62.623707	27.124495
Suoniemi		Snm			Liikennepaikka	220+655	00638	Lielahti–Kokemäki	Nokia	K				61.465246	23.210006
Syrjä		Syr			Linjavaihde	452+865	00435	Pieksämäki–Joensuu	Heinävesi					62.356168	28.366542
Syrjämäki		Ski			Liikennepaikka	341+621	01265	Tampere–Seinäjoki	Seinäjoki	K				62.756156	22.912391
Sysmäjärvi		Smj			Liikennepaikka	669+601	00912	Sysmäjärvi–Vuonos, Siilinjärvi–Viinijärvi	Outokumpu	K		K	K	62.716898	29.060797
Säkäniemi		Sä			Liikennepaikka	480+242	00918	Niirala-raja–Säkäniemi, Kouvola–Joensuu	Tohmajärvi	K				62.317676	30.120915
Sänkimäki		Skm			Linjavaihde	504+931	00872	Siilinjärvi–Viinijärvi	Kuopio					63.15085	27.874879
Sääksjärvi		Sj			Liikennepaikka	177+734	00157	Riihimäki–Tampere	Tampere	K				61.418654	23.752219
Taavetti		Ta			Liikennepaikka	238+589	00486	Kouvola–Joensuu	Luumäki	K		K	K	60.913077	27.559584
Tahkoluoto		Tko			Liikennepaikka	350+235	00702	Pori–Mäntyluoto	Pori			K		61.633918	21.417336
Taipale		Te			Liikennepaikka	537+605	01268	Pieksämäki–Kontiomäki	Iisalmi	K				63.459474	27.311786
Talviainen		Tv			Liikennepaikka	247+245	01270	Tampere–Jyväskylä	Orivesi	K				61.724742	24.658868
Talvivaara		Tlv			Liikennepaikka	636+831	01323	Murtomäki–Talvivaara				K	K	63.979256	27.995425
Tammisaari	Ekenäs	Tms			Seisake	174+056	00076	Karjaa–Hanko	Raasepori					59.979553	23.443501
TAMPERE		Tre			Osiin jaettu liikennepaikka	–	–	Riihimäki–Tampere, Tampere–Seinäjoki, Tampere–Jyväskylä		M				#N/A	#N/A
Tampere tavara		Tpet			Liikennepaikan osa	184+100	01273		Tampere			K	K	61.469888	23.763974
Tampere Viinikka		Vka			Liikennepaikan osa	185+400	01274		Tampere			K	K	61.480331	23.773542
Tampere asema	Tammerfors	Tpe	Tampere asema		Liikennepaikan osa	187+389	00160		Tampere				K	61.498236	23.773454
Tampere Järvensivu		Jvs			Liikennepaikan osa	187+814	01272		Tampere					61.491461	23.785189
Tapanila	Mosabacka	Tna			Seisake	12+610	00552	Helsinki–Riihimäki	Helsinki					60.2639	25.030033
Tapavainola		Tap			Liikennepaikka	270+405	01276	Kouvola–Joensuu	Lappeenranta	K				61.017354	28.08938
Tavastila		Tsl			Seisake	228+805	00837	Kouvola–Kotka	Kotka					60.573333	26.954701
Tervajoki		Tk			Seisake	460+156	00294	Seinäjoki–Vaasa	Isokyrö					63.000773	22.171462
Tervola		Trv			Liikennepaikka	900+521	00361	Laurila–Kemijärvi	Tervola	K				66.081811	24.772291
Tesoma		Tso			Seisake	196+230	01359	Lielahti–Kokemäki	Tampere					61.503363	23.630271
Tikkala		Tkk			Liikennepaikka	592+461	00916	Kouvola–Joensuu	Tohmajärvi	K				62.364981	30.083633
Tikkaperä		Tkp			Liikennepaikka	720+741	01335	Seinäjoki–Oulu	Liminka	K				64.771091	25.291811
TIKKURILA		Tik			Osiin jaettu liikennepaikka	–	–	Helsinki–Riihimäki, Huopalahti–Havukoski		K				#N/A	#N/A
Havukoski		Hvk			Liikennepaikan osa	17+725	01334		Vantaa	K				60.308402	25.051833
Hiekkaharju	Sandkulla	Hkh			Liikennepaikan osa	17+109	00556		Vantaa					60.303067	25.049296
Tikkurila asema	Dickursby	Tkl			Liikennepaikan osa	15+861	00018		Vantaa	K		K	K	60.292166	25.044055
Tohmajärvi		Toh			Liikennepaikka	571+752	00448	Niirala-raja–Säkäniemi	Tohmajärvi	K				62.243484	30.356148
Toijala		Tl			Liikennepaikka	147+339	00150	Toijala–Turku, Riihimäki–Tampere, Toijala–Valkeakoski	Akaa	K		K	K	61.170611	23.860905
Toivala		Toi			Liikennepaikka	479+162	00412	Pieksämäki–Kontiomäki	Siilinjärvi	K				62.996029	27.723588
Tolsa	Tolls	Tol			Seisake	35+454	00830	Helsinki–Turku satama	Kirkkonummi					60.118558	24.472724
Tommola		Tom			Liikennepaikka	117+197	01280	Riihimäki–Kouvola	Hollola	K				60.906703	25.492176
Torkkeli		Trk			Liikennepaikka	240+154	01283	Tampere–Jyväskylä	Orivesi	K				61.70059	24.548925
TORNIO		Trn			Osiin jaettu liikennepaikka	–	–	Tornio–Röyttä, Tornio–Kolari, Laurila–Tornio-raja						#N/A	#N/A
Tornio asema	Torneå	Tor	Tornio		Liikennepaikan osa (Tornio)	884+656	00351		Tornio	K			K	65.84534	24.163576
Tornio tavara		Trt			Liikennepaikan osa (Tornio)	885+395	01373		Tornio	K			K	#N/A	#N/A
Tornio-raja	Torneå gränsen	Trr			Liikennepaikka	887+190	00678	Laurila–Tornio-raja	Tornio					65.827853	24.150732
Tornio-Itäinen	Torneå Östra	Tri			Seisake	883+307	01318	Laurila–Tornio-raja	Tornio					65.850823	24.18508
Tuomarila	Domsby	Trl			Seisake	19+022	00579	Helsinki–Turku satama	Espoo					60.20605	24.681767
Tuomioja		Tja			Liikennepaikka	698+504	00336	Seinäjoki–Oulu, Tuomioja–Raahe	Siikajoki	K			K	64.608277	25.027911
Turenki		Tu			Liikennepaikka	93+771	00044	Riihimäki–Tampere	Janakkala	K		K	K	60.918387	24.63865
TURKU		Tur			Osiin jaettu liikennepaikka	–	–	Helsinki–Turku satama, Toijala–Turku, Turku–Uusikaupunki	Turku	K				#N/A	#N/A
Kupittaa	Kuppis	Kut			Liikennepaikan osa (Turku)	196+372	00126		Turku					60.450274	22.297114
Turku asema	Åbo	Tku	Turku päärautatieasema		Liikennepaikan osa (Turku)	199+674	00130		Turku			K	K	60.456488	22.260867
Turku tavara		Tkut			Liikennepaikan osa (Turku)	200+460	01285		Turku			K	K	60.452001	22.240471
Turku satama	Åbo hamn	Tus			Liikennepaikan osa (Turku)	202+510	00135		Turku			K		60.434245	22.226894
Tuupovaara		Tpv			Liikennepaikka	668+672	00458	Joensuu–Ilomantsi	Joensuu				K	62.523103	30.558938
Tuuri		Tuu			Seisake	366+962	00283	Orivesi–Seinäjoki	Alavus					62.605349	23.722323
Törmä		Tör			Liikennepaikka	878+075	01287	Laurila–Kemijärvi	Keminmaa	K				65.89466	24.625744
Törölä		Trä			Liikennepaikka	264+972	01290	Kouvola–Joensuu	Lappeenranta	K				61.007817	27.99051
Uimaharju		Uim			Liikennepaikka	674+451	00465	Joensuu–Nurmes	Joensuu	K		K	K	62.912482	30.241497
Urjala		Ur			Liikennepaikka	165+588	00148	Toijala–Turku	Urjala	K			K	61.0635	23.626264
Utajärvi		Utj			Liikennepaikka	810+502	00376	Oulu–Kontiomäki	Utajärvi	K			K	64.758926	26.413565
Utti		Uti			Linjavaihde	204+085	00484	Kouvola–Joensuu	Kouvola				K	60.877673	26.933289
Uusikaupunki	Nystad	Ukp			Liikennepaikka	264+795	00121	Uusikaupunki–Hangonsaari, Turku–Uusikaupunki	Uusikaupunki	K		K		60.797364	21.425685
Uusikylä		Ukä			Liikennepaikka	149+485	00105	Riihimäki–Kouvola	Lahti	K			K	60.927722	25.993966
Vaajakoski		Vko			Liikennepaikka	384+866	00245	Jyväskylä–Pieksämäki	Jyväskylä	K			K	62.247587	25.879324
Vaala		Vaa			Liikennepaikka	844+671	00377	Oulu–Kontiomäki	Vaala	K			K	64.558015	26.842702
Vaarala		Vra			Linjavaihde	981+481	00807	Laurila–Kemijärvi	Rovaniemi					66.518098	25.8801
Vaasa	Vasa	Vs			Liikennepaikka	492+588	00288	Seinäjoki–Vaasa	Vaasa	K			K	63.097786	21.621824
Vahojärvi		Vjr			Liikennepaikka	244+926	00214	Tampere–Seinäjoki	Parkano	K				61.913026	23.232163
VAINIKKALA		Vai			Osiin jaettu liikennepaikka	–	–	Luumäki–Vainikkala-raja		M				#N/A	#N/A
Vainikkala tavara		Vnat			Liikennepaikan osa	281+700	01292		Lappeenranta			K	K	60.86817	28.285662
Vainikkala asema		Vna	Vainikkala		Liikennepaikan osa	282+784	00492		Lappeenranta				K	60.863835	28.303201
Vainikkala-raja		Vnar			Liikennepaikka	284+862	00493		Lappeenranta					60.855474	28.337173
Valimo	Gjuteriet	Vmo			Seisake	7+480	00847	Helsinki–Turku satama	Helsinki					60.222028	24.87583
Valkeakoski		Vi			Liikennepaikka	164+952	00153	Toijala–Valkeakoski	Valkeakoski	M		K	K	61.273922	24.017075
Valkeasuo		Vso			Linjavaihde	583+976	00450	Niirala-raja–Säkäniemi	Tohmajärvi					62.304843	30.163977
Valtimo		Vlm			Liikennepaikka	808+636	00475	Nurmes–Kontiomäki	Valtimo	M				63.686406	28.800862
Vammala		Vma			Liikennepaikka	245+885	00176	Lielahti–Kokemäki	Sastamala	K			K	61.349519	22.887664
Vanattara		Vtr			Liikennepaikka	172+340	01295	Riihimäki–Tampere	Lempäälä	K				61.370713	23.759537
Vantaankoski	Vandaforsen	Vks			Seisake	14+907	00839	Huopalahti–Havukoski	Vantaa					60.286119	24.847966
Varkaus		Var			Liikennepaikka	424+685	00432	Pieksämäki–Joensuu, Varkaus–Kommila	Varkaus	K		K	K	62.312389	27.873415
Vartius		Vus			Liikennepaikka	753+755	00941	Kontiomäki–Vartius-raja	Kuhmo	M			K	64.540163	29.94809
Vartius-raja		Vur			Liikennepaikka	755+856	00949	Kontiomäki–Vartius-raja	Kuhmo					64.545906	29.989741
Vasikkahaka		Vkh			Liikennepaikka	31+175	01300	Helsinki–Turku satama	Kirkkonummi	K				60.146114	24.524784
Vaskiluoto	Vasklot	Vsk			Liikennepaikka	496+463	00291	Vaasa–Vaskiluoto	Vaasa			K		63.089086	21.564228
Vehkala	Veckal	Veh			Seisake	15+997	01337	Huopalahti–Havukoski	Vantaa					60.295054	24.843716
Venetmäki		Vki			Liikennepaikka	433+164	00428	Jyväskylä–Pieksämäki	Pieksämäki	K				62.309222	26.752862
Vesanka		Vn			Liikennepaikka	364+469	00239	Haapamäki–Jyväskylä	Jyväskylä	K				62.269355	25.557151
Viekki		Vk			Linjavaihde	753+979	00471	Joensuu–Nurmes	Lieksa				K	63.421549	29.61174
Vierumäki		Vrm			Linjavaihde	153+801	00112	Lahti–Heinola	Heinola				K	61.101895	25.932868
Vihanti		Vti			Liikennepaikka	684+573	00334	Seinäjoki–Oulu	Raahe	K				64.48451	24.993624
Vihtari		Vih			Liikennepaikka	489+889	00438	Pieksämäki–Joensuu	Heinävesi	K			K	62.380739	29.029282
Vihtavuori		Vri			Liikennepaikka	395+230	00248	Jyväskylä–Äänekoski	Laukaa	K				62.373612	25.889739
Viiala		Via			Liikennepaikka	154+288	00155	Riihimäki–Tampere	Akaa	K				61.211787	23.770683
Viinijärvi		Vnj			Liikennepaikka	656+569	00440	Siilinjärvi–Viinijärvi, Pieksämäki–Joensuu	Liperi	K				62.641687	29.237166
Villähde		Vlh			Liikennepaikka	140+442	00104	Riihimäki–Kouvola	Lahti	K				60.946379	25.833724
Vilppula		Vlp			Liikennepaikka	274+760	00196	Orivesi–Seinäjoki, Vilppula–Mänttä	Mänttä-Vilppu	K		K	K	62.025888	24.506956
Vinnilä		Vin			Liikennepaikka	131+243	01305	Riihimäki–Tampere	Hämeenlinna	K				61.099944	24.110938
Virkamies		Vms			Liikennepaikka	25+931	01339	Huopalahti–Havukoski	Vantaa	K				60.310517	24.963318
Voltti		Vt			Liikennepaikka	479+402	00302	Seinäjoki–Oulu	Kauhava	K				63.286164	22.824405
Vuohijärvi		Vhj			Liikennepaikka	221+308	00541	Kouvola–Pieksämäki	Kouvola	K			K	61.095852	26.796227
Vuojoki		Vjo			Liikennepaikka	318+501	01310	Kokemäki–Rauma	Eurajoki	K				61.179379	21.709937
Vuokatti		Vkt			Liikennepaikka	868+838	00383	Nurmes–Kontiomäki, Vuokatti–Lahnaslampi	Sotkamo	M			K	64.14752	28.273914
Vuonislahti		Vsl			Liikennepaikka	705+240	00467	Joensuu–Nurmes	Lieksa	K				63.152636	29.99331
Vuonos		Vns			Liikennepaikka	588+116	00863	Sysmäjärvi–Vuonos	Outokumpu			K		62.756358	29.080453
Vuosaari	Nordsjö	Vsa			Liikennepaikka	50+184	01321	Kerava–Vuosaari	Helsinki	K		K	K	60.227507	25.167956
YKSPIHLAJA		Yks			Osiin jaettu liikennepaikka	–	–	Kokkola–Ykspihlaja						#N/A	#N/A
Ykspihlaja tavara		Ykst			Liikennepaikan osa	553+900	00315		Kokkola			K	K	63.840242	23.070351
Ykspihlaja väliratapiha		Yksv			Liikennepaikan osa	555+511	01326		Kokkola			K	K	63.850442	23.058247
Ylistaro		Yst			Seisake	439+558	00296	Seinäjoki–Vaasa	Seinäjoki					62.917801	22.532729
Ylitornio	Övertorneå	Ytr			Seisake	946+041	00789	Tornio–Kolari	Ylitornio					66.324438	23.682508
Ylivalli		Ylv			Liikennepaikka	302+016	00654	Tampere–Seinäjoki	Kurikka	K		K	K	62.402105	22.958844
Ylivieska		Yv			Liikennepaikka	630+343	00320	Iisalmi–Ylivieska, Seinäjoki–Oulu	Ylivieska	M		K	K	64.071898	24.540593
Yläkoski		Ylk			Liikennepaikka	416+849	00867	Suonenjoki–Yläkoski	Suonenjoki			K		62.644012	27.085998
Ylämylly		Yly			Liikennepaikka	639+019	00913	Pieksämäki–Joensuu	Liperi	K			K	62.620557	29.564534
Ylöjärvi		Ylö			Liikennepaikka	200+753	00211	Tampere–Seinäjoki	Ylöjärvi	K			K	61.556526	23.58604
Ypykkävaara		Ypy			Liikennepaikka	729+780	00940	Kontiomäki–Vartius-raja	Kuhmo	K			K	64.479932	29.474923
Äetsä		Äs			Liikennepaikka	258+280	00174	Lielahti–Kokemäki	Sastamala	K			K	61.296677	22.706473
Ähtäri	Etseri	Äht			Liikennepaikka	346+067	00265	Orivesi–Seinäjoki	Ähtäri	K				62.553265	24.064036
Äänekoski		Äki			Liikennepaikka	424+515	00252	Jyväskylä–Äänekoski, Äänekoski–Haapajärvi	Äänekoski	K		K	K	62.596862	25.747629
